[{"name":"Загальні екрани","subMenu":[{"name":"Вітання","location":"title","state":"slide.title"},{"name":"Холдинг","location":"company","state":"slide.company"},{"name":"Бізнес картка","location":"business-card","state":"slide.businessCard"},{"name":"Тизер","location":"teaser","state":"slide.teaser"},{"name":"Сім’я","location":"family","state":"slide.family"},{"name":"Цілі до","location":"goal/1","state":"slide.goal"},{"name":"Цілі після","location":"goal/2","state":"slide.goal.id"},{"name":"Мої доходи","location":"income","state":"slide.income"},{"name":"Гроші","location":"money","state":"slide.money"},{"name":"Мої витрати","location":"cost","state":"slide.costs"},{"name":"Фінансовий план","location":"fin-plan/{id}","state":"slide.finPlan","check":"goal"},{"name":"Історія","location":"story/{id}","state":"slide.story","check":"goal"},{"name":"Фінансовий захист","location":"fin-protection/{id}","state":"slide.finProtection","check":"goal"}]},{"name":"Пенсія","subMenu":[{"name":"Негативний сценарій","location":"abyss/{id}","state":"slide.abyss","check":"Пенсія"},{"name":"Позитивний  сценарій","location":"abyss/{id}/step2","state":"slide.abyss.id.step","check":"Пенсія"},{"name":"Порівняння сценаріїв","location":"abyss/{id}/step3","state":"slide.abyss.step3","check":"Пенсія"},{"name":"Мінімум для прожиття","location":"minimum/{id}","state":"slide.minimum","check":"Пенсія"},{"name":"Витрати на пенсії","location":"pensions/{id}","state":"slide.pensions","check":"Пенсія"}]}]